{
  "features": [
    {
      "geometry": {
        "coordinates": [
          12.34555,
          51.32756
        ],
        "type": "Point"
      },
      "properties": {
        "address": {
          "city": "Leipzig Schleußig",
          "street": "Könneritzstraße 20",
          "zipCode": "04229"
        },
        "id": 788,
        "isOpened": true,
        "locationGroup": "Sachsen",
        "name": "Könneritzstraße / Holbeinstraße",
        "number": "S009"
      },
      "type": "Feature"
    },
    {
      "geometry": {
        "coordinates": [
          12.33857,
          51.3325
        ],
        "type": "Point"
      },
      "properties": {
        "address": {
          "city": "Leipzig Lindenau",
          "street": "Karl-Heine Str./ Zschochersche Straße",
          "zipCode": "04229"
        },
        "id": 665,
        "isOpened": true,
        "locationGroup": "Sachsen",
        "name": "Felsenkeller",
        "number": "S001"
      },
      "type": "Feature"
    },
    {
      "geometry": {
        "coordinates": [
          12.34143,
          51.33825
        ],
        "type": "Point"
      },
      "properties": {
        "address": {
          "city": "Leipzig Altlindenau",
          "street": "Jahnallee 54",
          "zipCode": "04177"
        },
        "id": 876,
        "isOpened": true,
        "locationGroup": "Sachsen",
        "name": "Lindenau Angerbrücke",
        "number": "S013"
      },
      "type": "Feature"
    },
    {
      "geometry": {
        "coordinates": [
          12.37332,
          51.32806
        ],
        "type": "Point"
      },
      "properties": {
        "address": {
          "city": "Leipzig Zentrum-Süd",
          "street": "Karl-Liebknecht-Straße 26",
          "zipCode": "04107"
        },
        "id": 878,
        "isOpened": true,
        "locationGroup": "Sachsen",
        "name": "Karl-Liebknecht-Straße 26",
        "number": "S015"
      },
      "type": "Feature"
    },
    {
      "geometry": {
        "coordinates": [
          12.38077,
          51.34373
        ],
        "type": "Point"
      },
      "properties": {
        "address": {
          "city": "Leipzig Zentrum-Ost",
          "street": "Willy-Brandt-Platz 7",
          "zipCode": "04109"
        },
        "id": 1075,
        "isOpened": true,
        "locationGroup": "Sachsen",
        "name": "PROMENADEN Hauptbahnhof Leipzig",
        "number": "S028"
      },
      "type": "Feature"
    },
    {
      "geometry": {
        "coordinates": [
          13.75966,
          51.02748
        ],
        "type": "Point"
      },
      "properties": {
        "address": {
          "city": "Dresden",
          "street": "Lockwitzer Str. 4",
          "zipCode": "01219"
        },
        "id": 1021,
        "isOpened": true,
        "locationGroup": "Dresden",
        "name": "Wasaplatz Dresden",
        "number": "S025"
      },
      "type": "Feature"
    },
    {
      "geometry": {
        "coordinates": [
          13.12228,
          51.12172
        ],
        "type": "Point"
      },
      "properties": {
        "address": {
          "city": "Döbeln",
          "street": "Obermarkt 5",
          "zipCode": "04720"
        },
        "id": 1014,
        "isOpened": true,
        "locationGroup": "Dresden",
        "name": "Döbeln Karls Manufakturen-Markt",
        "number": "S023"
      },
      "type": "Feature"
    },
    {
      "geometry": {
        "coordinates": [
          13.12395,
          51.15382
        ],
        "type": "Point"
      },
      "properties": {
        "address": {
          "city": "Döbeln",
          "street": "Erdbeerstr. 1",
          "zipCode": "04720"
        },
        "id": 1130,
        "isOpened": true,
        "locationGroup": "Dresden",
        "name": "Erlebnis-Dorf Döbeln",
        "number": "S033"
      },
      "type": "Feature"
    },
    {
      "geometry": {
        "coordinates": [
          8.609167,
          53.484689
        ],
        "type": "Point"
      },
      "properties": {
        "address": {
          "city": "Loxstedt",
          "street": "Zur Siedewurt 9",
          "zipCode": "27612"
        },
        "id": 1186,
        "isOpened": true,
        "locationGroup": "Niedersachsen",
        "name": "Erlebnis-Dorf Loxstedt",
        "number": "N001"
      },
      "type": "Feature"
    },
    {
      "geometry": {
        "coordinates": [
          10.37267,
          53.80993
        ],
        "type": "Point"
      },
      "properties": {
        "address": {
          "city": "Bad Oldesloe",
          "street": "Hagenstraße 19",
          "zipCode": "23843"
        },
        "id": 726,
        "isOpened": true,
        "locationGroup": "Warnsdorf",
        "name": "Bad Oldesloe, Sparkasse Mi & Sa Markt",
        "number": "W024"
      },
      "type": "Feature"
    },
    {
      "geometry": {
        "coordinates": [
          10.69756,
          53.91834
        ],
        "type": "Point"
      },
      "properties": {
        "address": {
          "city": "Bad Schwartau",
          "street": "Markttwiete",
          "zipCode": "23611"
        },
        "id": 720,
        "isOpened": true,
        "locationGroup": "Warnsdorf",
        "name": "Bad Schwartau, Matzen",
        "number": "W003"
      },
      "type": "Feature"
    },
    {
      "geometry": {
        "coordinates": [
          10.819593,
          53.965771
        ],
        "type": "Point"
      },
      "properties": {
        "address": {
          "city": "Warnsdorf",
          "street": "Fuchsbergstraße 4",
          "zipCode": "23626"
        },
        "id": 738,
        "isOpened": true,
        "locationGroup": "Warnsdorf",
        "name": "Selbstpflückfeld Warnsdorf",
        "number": "W033"
      },
      "type": "Feature"
    },
    {
      "geometry": {
        "coordinates": [
          10.82013,
          53.96586
        ],
        "type": "Point"
      },
      "properties": {
        "address": {
          "city": "Ratekau",
          "street": "Fuchsbergstraße 4",
          "zipCode": "23626"
        },
        "id": 585,
        "isOpened": true,
        "locationGroup": "Hof Warnsdorf",
        "name": "Erlebnis-Dorf Warnsdorf",
        "number": "W025"
      },
      "type": "Feature"
    },
    {
      "geometry": {
        "coordinates": [
          13.893971,
          51.939391
        ],
        "type": "Point"
      },
      "properties": {
        "address": {
          "city": "Lübben Steinkirchen",
          "street": "Lindenstraße",
          "zipCode": "15907"
        },
        "id": 1154,
        "isOpened": true,
        "locationGroup": "Dresden",
        "name": "Lübben Parkplatz an der Lindenstraße",
        "number": "B374"
      },
      "type": "Feature"
    },
    {
      "geometry": {
        "coordinates": [
          13.752966,
          52.421613
        ],
        "type": "Point"
      },
      "properties": {
        "address": {
          "city": "Erkner",
          "street": "Friedrichstr. 21/ 22",
          "zipCode": "15537"
        },
        "id": 606,
        "isOpened": true,
        "locationGroup": "Berlin",
        "name": "Zentrum Erkner",
        "number": "B153"
      },
      "type": "Feature"
    },
    {
      "geometry": {
        "coordinates": [
          13.62496,
          52.45448
        ],
        "type": "Point"
      },
      "properties": {
        "address": {
          "city": "Berlin Friedrichshagen",
          "street": "Bölschestr. 86",
          "zipCode": "12587"
        },
        "id": 40,
        "isOpened": true,
        "locationGroup": "Berlin",
        "name": "Bölschestraße 86 Tel: 030/60033671",
        "number": "B040"
      },
      "type": "Feature"
    },
    {
      "geometry": {
        "coordinates": [
          13.58754,
          52.44118
        ],
        "type": "Point"
      },
      "properties": {
        "address": {
          "city": "Berlin Köpenick",
          "street": "Pablo-Neruda-Str. 2-4",
          "zipCode": "12559"
        },
        "id": 89,
        "isOpened": true,
        "locationGroup": "Berlin",
        "name": "Allende Center",
        "number": "B089"
      },
      "type": "Feature"
    },
    {
      "geometry": {
        "coordinates": [
          13.578116,
          52.446037
        ],
        "type": "Point"
      },
      "properties": {
        "address": {
          "city": "Berlin",
          "street": "Lüdersstraße/Ecke Jägerstraße",
          "zipCode": "12555"
        },
        "id": 1152,
        "isOpened": true,
        "locationGroup": "Berlin",
        "name": "Alter Markt",
        "number": "B373"
      },
      "type": "Feature"
    },
    {
      "geometry": {
        "coordinates": [
          12.54133,
          54.3924
        ],
        "type": "Point"
      },
      "properties": {
        "address": {
          "city": "Born a. Darß",
          "street": "Bäderstraße 1",
          "zipCode": "18375"
        },
        "id": 843,
        "isOpened": true,
        "locationGroup": "Darß",
        "name": "Edeka Jens Born",
        "number": "M071"
      },
      "type": "Feature"
    },
    {
      "geometry": {
        "coordinates": [
          12.35285,
          54.29204
        ],
        "type": "Point"
      },
      "properties": {
        "address": {
          "city": "Dierhagen",
          "street": "Strandstr. 26",
          "zipCode": "18347"
        },
        "id": 163,
        "isOpened": true,
        "locationGroup": "Darß",
        "name": "Fischlandtor EKZ",
        "number": "M019"
      },
      "type": "Feature"
    },
    {
      "geometry": {
        "coordinates": [
          12.23659,
          54.24934
        ],
        "type": "Point"
      },
      "properties": {
        "address": {
          "city": "Graal-Müritz",
          "street": "August-Bebel-Str. 3",
          "zipCode": "18181"
        },
        "id": 155,
        "isOpened": true,
        "locationGroup": "Darß",
        "name": "Haus des Gastes",
        "number": "M013"
      },
      "type": "Feature"
    },
    {
      "geometry": {
        "coordinates": [
          12.23215,
          54.16024
        ],
        "type": "Point"
      },
      "properties": {
        "address": {
          "city": "Rövershagen",
          "street": "Purkshof 2",
          "zipCode": "18182"
        },
        "id": 141,
        "isOpened": true,
        "locationGroup": "Hof Rövershagen",
        "name": "Erlebnis-Dorf Rövershagen",
        "number": "R028"
      },
      "type": "Feature"
    },
    {
      "geometry": {
        "coordinates": [
          12.230668,
          54.160048
        ],
        "type": "Point"
      },
      "properties": {
        "address": {
          "city": "Rövershagen",
          "street": "Purkshof 2",
          "zipCode": "18182"
        },
        "id": 223,
        "isOpened": true,
        "locationGroup": "Rostock",
        "name": "Selbstpflückfeld Purkshof",
        "number": "SP004"
      },
      "type": "Feature"
    },
    {
      "geometry": {
        "coordinates": [
          13.55099,
          54.38721
        ],
        "type": "Point"
      },
      "properties": {
        "address": {
          "city": "Zirkow",
          "street": "Binzer Str. 32",
          "zipCode": "18528"
        },
        "id": 166,
        "isOpened": true,
        "locationGroup": "Hof Zirkow",
        "name": "Erlebnis-Dorf Zirkow",
        "number": "M022"
      },
      "type": "Feature"
    },
    {
      "geometry": {
        "coordinates": [
          13.710502,
          54.361645
        ],
        "type": "Point"
      },
      "properties": {
        "address": {
          "city": "Baabe",
          "street": "Strandstraße 27",
          "zipCode": "18586"
        },
        "id": 1189,
        "isOpened": true,
        "locationGroup": "Rügen",
        "name": "Baabe Strandstr.",
        "number": "M097"
      },
      "type": "Feature"
    },
    {
      "geometry": {
        "coordinates": [
          13.054421,
          54.328143
        ],
        "type": "Point"
      },
      "properties": {
        "address": {
          "city": "Stralsund",
          "street": "Trelleborger Platz",
          "zipCode": "18408"
        },
        "id": 149,
        "isOpened": true,
        "locationGroup": "Stralsund",
        "name": "Buswendeschleife Knieper",
        "number": "M004"
      },
      "type": "Feature"
    },
    {
      "geometry": {
        "coordinates": [
          13.91372,
          54.07985
        ],
        "type": "Point"
      },
      "properties": {
        "address": {
          "city": "Zinnowitz",
          "street": "Neue Strandstraße 25",
          "zipCode": "17454"
        },
        "id": 837,
        "isOpened": true,
        "locationGroup": "Usedom",
        "name": "Strandperle Zinnowitz",
        "number": "M070"
      },
      "type": "Feature"
    },
    {
      "geometry": {
        "coordinates": [
          10.86029,
          53.95727
        ],
        "type": "Point"
      },
      "properties": {
        "address": {
          "city": "Lübeck",
          "street": "Gneversdorfer Weg 3",
          "zipCode": "23570"
        },
        "id": 650,
        "isOpened": true,
        "locationGroup": "Warnsdorf",
        "name": "Rewe Travemünde",
        "number": "W112"
      },
      "type": "Feature"
    },
    {
      "geometry": {
        "coordinates": [
          12.095647,
          54.009724
        ],
        "type": "Point"
      },
      "properties": {
        "address": {
          "city": "Pölchow",
          "street": "Ausfahrt Nobelstr. Richtung Autobahn",
          "zipCode": ""
        },
        "id": 139,
        "isOpened": true,
        "locationGroup": "Rostock",
        "name": "Selbstpflückfeld Südstadt",
        "number": "SP002"
      },
      "type": "Feature"
    },
    {
      "geometry": {
        "coordinates": [
          13.41613,
          52.50717
        ],
        "type": "Point"
      },
      "properties": {
        "address": {
          "city": "Berlin Mitte",
          "street": "Annenstraße 53",
          "zipCode": "10179"
        },
        "id": 28,
        "isOpened": true,
        "locationGroup": "Berlin",
        "name": "Annenstraße",
        "number": "B029"
      },
      "type": "Feature"
    },
    {
      "geometry": {
        "coordinates": [
          13.448937,
          52.505371
        ],
        "type": "Point"
      },
      "properties": {
        "address": {
          "city": "Berlin Friedrichshain",
          "street": "Warschauer Str.43",
          "zipCode": "10243"
        },
        "id": 208,
        "isOpened": true,
        "locationGroup": "Berlin",
        "name": "U-Bahnhof Warschauer Str.",
        "number": "B126"
      },
      "type": "Feature"
    },
    {
      "geometry": {
        "coordinates": [
          13.4346,
          52.50954
        ],
        "type": "Point"
      },
      "properties": {
        "address": {
          "city": "Berlin Friedrichshain",
          "street": "Koppenstraße 3",
          "zipCode": "10243"
        },
        "id": 863,
        "isOpened": true,
        "locationGroup": "Berlin",
        "name": "Ostbahnhof",
        "number": "B273"
      },
      "type": "Feature"
    },
    {
      "geometry": {
        "coordinates": [
          13.39409,
          52.4898
        ],
        "type": "Point"
      },
      "properties": {
        "address": {
          "city": "Berlin Kreuzberg",
          "street": "Zossener Str. 28",
          "zipCode": "10961"
        },
        "id": 267,
        "isOpened": true,
        "locationGroup": "Berlin",
        "name": "Rossmann Zossener Str. 28",
        "number": "B136"
      },
      "type": "Feature"
    },
    {
      "geometry": {
        "coordinates": [
          13.46853,
          52.50384
        ],
        "type": "Point"
      },
      "properties": {
        "address": {
          "city": "Berlin Friedrichshain",
          "street": "Sonntag Str. 37",
          "zipCode": "10245"
        },
        "id": 346,
        "isOpened": true,
        "locationGroup": "Berlin",
        "name": "Ostkreuz S-Bahnhof",
        "number": "B162"
      },
      "type": "Feature"
    },
    {
      "geometry": {
        "coordinates": [
          10.58645,
          54.29381
        ],
        "type": "Point"
      },
      "properties": {
        "address": {
          "city": "Lütjenburg",
          "street": "Posthofstraße 4",
          "zipCode": "24321"
        },
        "id": 848,
        "isOpened": true,
        "locationGroup": "Warnsdorf",
        "name": "famila Lütjenburg",
        "number": "W085"
      },
      "type": "Feature"
    },
    {
      "geometry": {
        "coordinates": [
          10.55702,
          54.17217
        ],
        "type": "Point"
      },
      "properties": {
        "address": {
          "city": "Malente",
          "street": "Bahnhofstraße 40",
          "zipCode": "23714"
        },
        "id": 857,
        "isOpened": true,
        "locationGroup": "Warnsdorf",
        "name": "Markant Malente",
        "number": "W095"
      },
      "type": "Feature"
    },
    {
      "geometry": {
        "coordinates": [
          12.05685,
          54.13866
        ],
        "type": "Point"
      },
      "properties": {
        "address": {
          "city": "Rostock Lütten Klein",
          "street": "St. Petersburger Straße",
          "zipCode": "18107"
        },
        "id": 128,
        "isOpened": true,
        "locationGroup": "Rostock",
        "name": "Cinestar",
        "number": "R016"
      },
      "type": "Feature"
    },
    {
      "geometry": {
        "coordinates": [
          12.07288,
          54.09938
        ],
        "type": "Point"
      },
      "properties": {
        "address": {
          "city": "Rostock Reutershagen",
          "street": "Goerdelerstr. 50",
          "zipCode": "18069"
        },
        "id": 124,
        "isOpened": true,
        "locationGroup": "Rostock",
        "name": "Reuterpassage",
        "number": "R012"
      },
      "type": "Feature"
    },
    {
      "geometry": {
        "coordinates": [
          12.99662,
          52.53363
        ],
        "type": "Point"
      },
      "properties": {
        "address": {
          "city": "Wustermark",
          "street": "Zum Erlebnisdorf 1",
          "zipCode": "14641"
        },
        "id": 564,
        "isOpened": true,
        "locationGroup": "Hof Elstal",
        "name": "Erlebnis-Dorf Elstal",
        "number": "B205"
      },
      "type": "Feature"
    },
    {
      "geometry": {
        "coordinates": [
          13.017948,
          52.417692
        ],
        "type": "Point"
      },
      "properties": {
        "address": {
          "city": "Potsdam",
          "street": "Potsdamer Str. 37 und 38",
          "zipCode": "14469"
        },
        "id": 1114,
        "isOpened": true,
        "locationGroup": "Berlin",
        "name": "An der B273",
        "number": "B352"
      },
      "type": "Feature"
    },
    {
      "geometry": {
        "coordinates": [
          13.05831,
          52.39927
        ],
        "type": "Point"
      },
      "properties": {
        "address": {
          "city": "Potsdam Historische Innenstadt",
          "street": "Platz der Einheit",
          "zipCode": "14467"
        },
        "id": 509,
        "isOpened": true,
        "locationGroup": "Berlin",
        "name": "Platz der Einheit",
        "number": "B217"
      },
      "type": "Feature"
    },
    {
      "geometry": {
        "coordinates": [
          13.1569,
          52.53269
        ],
        "type": "Point"
      },
      "properties": {
        "address": {
          "city": "Berlin Staaken",
          "street": "Brunsbütteler Damm 265",
          "zipCode": "13591"
        },
        "id": 935,
        "isOpened": true,
        "locationGroup": "Berlin",
        "name": "Brunsbütteler Damm 265",
        "number": "B300"
      },
      "type": "Feature"
    },
    {
      "geometry": {
        "coordinates": [
          13.09165,
          52.39264
        ],
        "type": "Point"
      },
      "properties": {
        "address": {
          "city": "Potsdam Babelsberg Nord",
          "street": "Karl-Liebknecht-Str. 134 A",
          "zipCode": "14482"
        },
        "id": 230,
        "isOpened": true,
        "locationGroup": "Berlin",
        "name": "Rathaus Babelsberg",
        "number": "B114"
      },
      "type": "Feature"
    },
    {
      "geometry": {
        "coordinates": [
          14.00284,
          54.04471
        ],
        "type": "Point"
      },
      "properties": {
        "address": {
          "city": "Koserow",
          "street": "Zum Erlebnisdorf 1",
          "zipCode": "17459"
        },
        "id": 672,
        "isOpened": true,
        "locationGroup": "Hof Koserow",
        "name": "Erlebnis-Dorf Koserow",
        "number": "M028"
      },
      "type": "Feature"
    },
    {
      "geometry": {
        "coordinates": [
          13.47332,
          52.75798
        ],
        "type": "Point"
      },
      "properties": {
        "address": {
          "city": "Wandlitz",
          "street": "Prenzlauer Chaussee 181",
          "zipCode": "16348"
        },
        "id": 563,
        "isOpened": true,
        "locationGroup": "Berlin",
        "name": "EKZ Wandlitz",
        "number": "B224"
      },
      "type": "Feature"
    },
    {
      "geometry": {
        "coordinates": [
          13.28892,
          52.63243
        ],
        "type": "Point"
      },
      "properties": {
        "address": {
          "city": "Berlin Frohnau",
          "street": "Ludolfinger Platz",
          "zipCode": "13465"
        },
        "id": 405,
        "isOpened": true,
        "locationGroup": "Berlin",
        "name": "Ludolfinger Platz EKZ",
        "number": "B196"
      },
      "type": "Feature"
    },
    {
      "geometry": {
        "coordinates": [
          13.54322,
          52.62141
        ],
        "type": "Point"
      },
      "properties": {
        "address": {
          "city": "Panketal",
          "street": "Dorfstr. 30",
          "zipCode": "16341"
        },
        "id": 1071,
        "isOpened": true,
        "locationGroup": "Berlin",
        "name": "Hollandpark Panketal",
        "number": "B337"
      },
      "type": "Feature"
    },
    {
      "geometry": {
        "coordinates": [
          13.3201,
          52.60693
        ],
        "type": "Point"
      },
      "properties": {
        "address": {
          "city": "Berlin Reinickendorf",
          "street": "Waidmannsluster Damm",
          "zipCode": "13469"
        },
        "id": 110,
        "isOpened": true,
        "locationGroup": "Berlin",
        "name": "Waidmannsluster Damm S-BHF",
        "number": "B106"
      },
      "type": "Feature"
    },
    {
      "geometry": {
        "coordinates": [
          13.33407,
          52.59544
        ],
        "type": "Point"
      },
      "properties": {
        "address": {
          "city": "Berlin Reinickendorf",
          "street": "Wilhelmsruher Damm 231",
          "zipCode": "13435"
        },
        "id": 76,
        "isOpened": true,
        "locationGroup": "Berlin",
        "name": "Wilhelmsruher Damm",
        "number": "B072"
      },
      "type": "Feature"
    },
    {
      "geometry": {
        "coordinates": [
          12.12174,
          54.07557
        ],
        "type": "Point"
      },
      "properties": {
        "address": {
          "city": "Rostock Südstadt",
          "street": "Erich-Schlesinger-Straße 28",
          "zipCode": "18059"
        },
        "id": 842,
        "isOpened": true,
        "locationGroup": "Rostock",
        "name": "Ärztehaus Südstadt",
        "number": "R044"
      },
      "type": "Feature"
    },
    {
      "geometry": {
        "coordinates": [
          12.10022,
          54.08514
        ],
        "type": "Point"
      },
      "properties": {
        "address": {
          "city": "Rostock Hansaviertel",
          "street": "Schillingallee 70",
          "zipCode": "18057"
        },
        "id": 605,
        "isOpened": true,
        "locationGroup": "Rostock",
        "name": "Uni-Klinik Rostock",
        "number": "R011"
      },
      "type": "Feature"
    },
    {
      "geometry": {
        "coordinates": [
          12.13452,
          54.08928
        ],
        "type": "Point"
      },
      "properties": {
        "address": {
          "city": "Rostock Stadtmitte",
          "street": "Lange Str. 29-31",
          "zipCode": "18055"
        },
        "id": 121,
        "isOpened": true,
        "locationGroup": "Rostock",
        "name": "Kaufhof Breite Str.",
        "number": "R008"
      },
      "type": "Feature"
    },
    {
      "geometry": {
        "coordinates": [
          12.154733,
          54.103847
        ],
        "type": "Point"
      },
      "properties": {
        "address": {
          "city": "Rostock Dierkow-Neu",
          "street": "Gutenbergstraße 76",
          "zipCode": "18146"
        },
        "id": 1010,
        "isOpened": true,
        "locationGroup": "Rostock",
        "name": "Dierkower Kreuz",
        "number": "R049"
      },
      "type": "Feature"
    },
    {
      "geometry": {
        "coordinates": [
          13.64884,
          52.51596
        ],
        "type": "Point"
      },
      "properties": {
        "address": {
          "city": "Hoppegarten",
          "street": "Neuer Hönower Weg 1",
          "zipCode": "15366"
        },
        "id": 608,
        "isOpened": true,
        "locationGroup": "Berlin",
        "name": "S-Bahnhof Birkenstein",
        "number": "B223"
      },
      "type": "Feature"
    },
    {
      "geometry": {
        "coordinates": [
          13.61215,
          52.51132
        ],
        "type": "Point"
      },
      "properties": {
        "address": {
          "city": "Berlin Mahlsdorf",
          "street": "Hönower Str. 73",
          "zipCode": "12623"
        },
        "id": 32,
        "isOpened": true,
        "locationGroup": "Berlin",
        "name": "S-Bahnhof Mahlsdorf",
        "number": "B033"
      },
      "type": "Feature"
    },
    {
      "geometry": {
        "coordinates": [
          13.58798,
          52.52132
        ],
        "type": "Point"
      },
      "properties": {
        "address": {
          "city": "Berlin Hellersdorf",
          "street": "Hellersdorfer Str. 78a",
          "zipCode": "12619"
        },
        "id": 82,
        "isOpened": true,
        "locationGroup": "Berlin",
        "name": "U-Bahn Kaulsdorf Nord",
        "number": "B078"
      },
      "type": "Feature"
    },
    {
      "geometry": {
        "coordinates": [
          13.178678,
          52.421536
        ],
        "type": "Point"
      },
      "properties": {
        "address": {
          "city": "Berlin Wannsee",
          "street": "Kronprinzessinnenweg 250",
          "zipCode": "14109"
        },
        "id": 1195,
        "isOpened": true,
        "locationGroup": "Berlin",
        "name": "S-Bahnhof Wannsee",
        "number": "B381"
      },
      "type": "Feature"
    },
    {
      "geometry": {
        "coordinates": [
          13.24063,
          52.44259
        ],
        "type": "Point"
      },
      "properties": {
        "address": {
          "city": "Berlin Zehlendorf",
          "street": "Fischerhüttenstr. 89",
          "zipCode": "14163"
        },
        "id": 212,
        "isOpened": true,
        "locationGroup": "Berlin",
        "name": "U-Bahn Krumme Lanke",
        "number": "B080"
      },
      "type": "Feature"
    },
    {
      "geometry": {
        "coordinates": [
          13.50515,
          52.57338
        ],
        "type": "Point"
      },
      "properties": {
        "address": {
          "city": "Berlin Neu-Hohenschönhausen",
          "street": "Egon-Erwin-Kisch Str. 31",
          "zipCode": "13059"
        },
        "id": 103,
        "isOpened": true,
        "locationGroup": "Berlin",
        "name": "S-Bahnhof Wartenberg",
        "number": "B100"
      },
      "type": "Feature"
    },
    {
      "geometry": {
        "coordinates": [
          13.5507,
          52.43883
        ],
        "type": "Point"
      },
      "properties": {
        "address": {
          "city": "Berlin Adlershof",
          "street": "Dörpfeldstr. 55",
          "zipCode": "12489"
        },
        "id": 50,
        "isOpened": true,
        "locationGroup": "Berlin",
        "name": "Apotheke Dörpfeldstraße",
        "number": "B049"
      },
      "type": "Feature"
    },
    {
      "geometry": {
        "coordinates": [
          13.508196,
          52.45477
        ],
        "type": "Point"
      },
      "properties": {
        "address": {
          "city": "Berlin Schöneweide",
          "street": "Sterndamm / Südostallee",
          "zipCode": "12487"
        },
        "id": 27,
        "isOpened": true,
        "locationGroup": "Berlin",
        "name": "Sterndamm Straba",
        "number": "B028"
      },
      "type": "Feature"
    },
    {
      "geometry": {
        "coordinates": [
          13.20874,
          52.5572
        ],
        "type": "Point"
      },
      "properties": {
        "address": {
          "city": "Berlin Hakenfelde",
          "street": "Streitstr. 6-19",
          "zipCode": "13587"
        },
        "id": 524,
        "isOpened": true,
        "locationGroup": "Berlin",
        "name": "Carossa-Quartier",
        "number": "B215"
      },
      "type": "Feature"
    },
    {
      "geometry": {
        "coordinates": [
          13.39343,
          52.50682
        ],
        "type": "Point"
      },
      "properties": {
        "address": {
          "city": "Berlin Kreuzberg",
          "street": "Rudi-Dutschke-Straße 17",
          "zipCode": "10969"
        },
        "id": 918,
        "isOpened": true,
        "locationGroup": "Berlin",
        "name": "Bäckerei Junge Rudi-Dutschke-Straße",
        "number": "B295"
      },
      "type": "Feature"
    },
    {
      "geometry": {
        "coordinates": [
          13.39002,
          52.51045
        ],
        "type": "Point"
      },
      "properties": {
        "address": {
          "city": "Berlin Mitte",
          "street": "Friedrichstr. / Leipziger Str.",
          "zipCode": "10117"
        },
        "id": 1,
        "isOpened": true,
        "locationGroup": "Berlin",
        "name": "Atrium",
        "number": "B001"
      },
      "type": "Feature"
    },
    {
      "geometry": {
        "coordinates": [
          13.56492,
          52.51898
        ],
        "type": "Point"
      },
      "properties": {
        "address": {
          "city": "Berlin Biesdorf",
          "street": "Blumberger Damm / Warener Str.",
          "zipCode": "12683"
        },
        "id": 1112,
        "isOpened": true,
        "locationGroup": "Berlin",
        "name": "UKB Berlin Marzahn",
        "number": "B351"
      },
      "type": "Feature"
    },
    {
      "geometry": {
        "coordinates": [
          13.56044,
          52.55542
        ],
        "type": "Point"
      },
      "properties": {
        "address": {
          "city": "Berlin Marzahn",
          "street": "Mehrower Allee 22",
          "zipCode": "12687"
        },
        "id": 280,
        "isOpened": true,
        "locationGroup": "Berlin",
        "name": "Ärztehaus Marzahn",
        "number": "B156"
      },
      "type": "Feature"
    },
    {
      "geometry": {
        "coordinates": [
          13.49749,
          52.41631
        ],
        "type": "Point"
      },
      "properties": {
        "address": {
          "city": "Berlin Rudow",
          "street": "Alt Rudow 73-75",
          "zipCode": "12355"
        },
        "id": 58,
        "isOpened": true,
        "locationGroup": "Berlin",
        "name": "Fahrrad Berger",
        "number": "B057"
      },
      "type": "Feature"
    },
    {
      "geometry": {
        "coordinates": [
          13.49254,
          52.42027
        ],
        "type": "Point"
      },
      "properties": {
        "address": {
          "city": "Berlin Rudow",
          "street": "Alt Rudow 23 / Krokusstr. 97",
          "zipCode": "12357"
        },
        "id": 330,
        "isOpened": true,
        "locationGroup": "Berlin",
        "name": "MC Paper",
        "number": "B176"
      },
      "type": "Feature"
    },
    {
      "geometry": {
        "coordinates": [
          13.37352,
          52.48781
        ],
        "type": "Point"
      },
      "properties": {
        "address": {
          "city": "Berlin",
          "street": "Am Lockdepot /Ecke Monumentenbrücke",
          "zipCode": "10965"
        },
        "id": 1117,
        "isOpened": true,
        "locationGroup": "Berlin",
        "name": "Am Lockdepot",
        "number": "B353"
      },
      "type": "Feature"
    },
    {
      "geometry": {
        "coordinates": [
          13.374213,
          52.500626
        ],
        "type": "Point"
      },
      "properties": {
        "address": {
          "city": "Berlin Kreuzberg",
          "street": "Schöneberger Straße 16",
          "zipCode": "10963"
        },
        "id": 1098,
        "isOpened": true,
        "locationGroup": "Berlin",
        "name": "BRLO Biergarten",
        "number": "B348"
      },
      "type": "Feature"
    },
    {
      "geometry": {
        "coordinates": [
          13.49227,
          52.54414
        ],
        "type": "Point"
      },
      "properties": {
        "address": {
          "city": "Berlin Alt-Hohenschönhausen",
          "street": "Konrad-Wolf-Straße & Orankestraße",
          "zipCode": "13055"
        },
        "id": 84,
        "isOpened": true,
        "locationGroup": "Berlin",
        "name": "Konrad-Wolf-Straße",
        "number": "B082"
      },
      "type": "Feature"
    },
    {
      "geometry": {
        "coordinates": [
          13.4275,
          52.56803
        ],
        "type": "Point"
      },
      "properties": {
        "address": {
          "city": "Berlin Pankow",
          "street": "Prenzlauer Promenade 128",
          "zipCode": "13089"
        },
        "id": 60,
        "isOpened": true,
        "locationGroup": "Berlin",
        "name": "Prenzlauer Promenade 128",
        "number": "B059"
      },
      "type": "Feature"
    },
    {
      "geometry": {
        "coordinates": [
          13.4653,
          52.52441
        ],
        "type": "Point"
      },
      "properties": {
        "address": {
          "city": "Berlin",
          "street": "Storkower Straße 207a",
          "zipCode": "10369"
        },
        "id": 701,
        "isOpened": true,
        "locationGroup": "Berlin",
        "name": "Storkower Straße",
        "number": "B163"
      },
      "type": "Feature"
    },
    {
      "geometry": {
        "coordinates": [
          13.474526,
          52.514696
        ],
        "type": "Point"
      },
      "properties": {
        "address": {
          "city": "Berlin Friedrichshain",
          "street": "Rigaer Straße 55b",
          "zipCode": "10247"
        },
        "id": 97,
        "isOpened": true,
        "locationGroup": "Berlin",
        "name": "S-Bahnhof Frankfurter Allee / Rigaer Str.",
        "number": "B095"
      },
      "type": "Feature"
    },
    {
      "geometry": {
        "coordinates": [
          13.49743,
          52.5092
        ],
        "type": "Point"
      },
      "properties": {
        "address": {
          "city": "Berlin Lichtenberg",
          "street": "Weitlingstr. 22",
          "zipCode": "10317"
        },
        "id": 592,
        "isOpened": true,
        "locationGroup": "Berlin",
        "name": "S-Bahnhof Lichtenberg",
        "number": "B007"
      },
      "type": "Feature"
    },
    {
      "geometry": {
        "coordinates": [
          13.30049,
          52.5307
        ],
        "type": "Point"
      },
      "properties": {
        "address": {
          "city": "Berlin Charlottenburg",
          "street": "Max-Dohrn-Str. 9",
          "zipCode": "10589"
        },
        "id": 17,
        "isOpened": true,
        "locationGroup": "Berlin",
        "name": "U-Bahn Jungfernheide",
        "number": "B018"
      },
      "type": "Feature"
    },
    {
      "geometry": {
        "coordinates": [
          13.30659,
          52.51728
        ],
        "type": "Point"
      },
      "properties": {
        "address": {
          "city": "Berlin Charlottenburg",
          "street": "Otto Suhr Allee/ R. Wagner Platz",
          "zipCode": "10585"
        },
        "id": 534,
        "isOpened": true,
        "locationGroup": "Berlin",
        "name": "U-Bahnhof Richard-Wagner-Platz",
        "number": "B222"
      },
      "type": "Feature"
    },
    {
      "geometry": {
        "coordinates": [
          13.35465,
          52.41307
        ],
        "type": "Point"
      },
      "properties": {
        "address": {
          "city": "Berlin Marienfelde",
          "street": "Hildburghauser Str. 27c",
          "zipCode": "12279"
        },
        "id": 55,
        "isOpened": true,
        "locationGroup": "Berlin",
        "name": "Sprint Tankstelle",
        "number": "B054"
      },
      "type": "Feature"
    },
    {
      "geometry": {
        "coordinates": [
          13.31341,
          52.42039
        ],
        "type": "Point"
      },
      "properties": {
        "address": {
          "city": "Berlin Lichterfelde",
          "street": "Hildburghauser Str. 256",
          "zipCode": "12207"
        },
        "id": 1076,
        "isOpened": true,
        "locationGroup": "Berlin",
        "name": "Bäckerei Junge Hildburghauser Str.",
        "number": "B339"
      },
      "type": "Feature"
    },
    {
      "geometry": {
        "coordinates": [
          13.39044,
          52.43388
        ],
        "type": "Point"
      },
      "properties": {
        "address": {
          "city": "Berlin Mariendorf",
          "street": "Mariendorfer Damm 191",
          "zipCode": "12107"
        },
        "id": 51,
        "isOpened": true,
        "locationGroup": "Berlin",
        "name": "Schaukelpferd",
        "number": "B050"
      },
      "type": "Feature"
    },
    {
      "geometry": {
        "coordinates": [
          13.44815,
          52.43712
        ],
        "type": "Point"
      },
      "properties": {
        "address": {
          "city": "Berlin Britz",
          "street": "Gutschmidtstr. 17",
          "zipCode": "12359"
        },
        "id": 16,
        "isOpened": true,
        "locationGroup": "Berlin",
        "name": "U-Bahn Britz Süd",
        "number": "B017"
      },
      "type": "Feature"
    },
    {
      "geometry": {
        "coordinates": [
          13.254644,
          52.450229
        ],
        "type": "Point"
      },
      "properties": {
        "address": {
          "city": "Berlin Zehlendorf",
          "street": "Riemeister Str. 129",
          "zipCode": "14169"
        },
        "id": 47,
        "isOpened": true,
        "locationGroup": "Berlin",
        "name": "U-Bahn Onkel Toms Hütte",
        "number": "B046"
      },
      "type": "Feature"
    },
    {
      "geometry": {
        "coordinates": [
          13.35334,
          52.49945
        ],
        "type": "Point"
      },
      "properties": {
        "address": {
          "city": "Berlin Schöneberg",
          "street": "Nollendorfplatz",
          "zipCode": "10777"
        },
        "id": 78,
        "isOpened": true,
        "locationGroup": "Berlin",
        "name": "U-Bahnhof Nollendorfplatz",
        "number": "B074"
      },
      "type": "Feature"
    },
    {
      "geometry": {
        "coordinates": [
          13.48235,
          52.5035
        ],
        "type": "Point"
      },
      "properties": {
        "address": {
          "city": "Berlin Rummelsburg",
          "street": "Kaskelstraße/ Türrschmidtstr.",
          "zipCode": "10317"
        },
        "id": 702,
        "isOpened": true,
        "locationGroup": "Berlin",
        "name": "Kaskelstr. / Türrschmidtstr.",
        "number": "B177"
      },
      "type": "Feature"
    },
    {
      "geometry": {
        "coordinates": [
          13.49597,
          52.50589
        ],
        "type": "Point"
      },
      "properties": {
        "address": {
          "city": "Berlin Rummelsburg",
          "street": "Weitlingstr./ Sophienstr.",
          "zipCode": "10317"
        },
        "id": 703,
        "isOpened": true,
        "locationGroup": "Berlin",
        "name": "Weitlingstr. / Sophienstr.",
        "number": "B255"
      },
      "type": "Feature"
    },
    {
      "geometry": {
        "coordinates": [
          13.34114,
          52.45096
        ],
        "type": "Point"
      },
      "properties": {
        "address": {
          "city": "Berlin Steglitz",
          "street": "Steglitzer Damm 31",
          "zipCode": "12169"
        },
        "id": 99,
        "isOpened": true,
        "locationGroup": "Berlin",
        "name": "Sparkasse Steglitzer Damm",
        "number": "B096"
      },
      "type": "Feature"
    },
    {
      "geometry": {
        "coordinates": [
          13.328601,
          52.428923
        ],
        "type": "Point"
      },
      "properties": {
        "address": {
          "city": "Berlin",
          "street": "Lankwitzer Str. 19-24",
          "zipCode": "12209"
        },
        "id": 1196,
        "isOpened": true,
        "locationGroup": "Berlin",
        "name": "S-Bahnhof Lichterfelde Ost",
        "number": "B379"
      },
      "type": "Feature"
    },
    {
      "geometry": {
        "coordinates": [
          13.265238,
          52.441809
        ],
        "type": "Point"
      },
      "properties": {
        "address": {
          "city": "Berlin Zehlendorf",
          "street": "Clayallee 278",
          "zipCode": "14169"
        },
        "id": 942,
        "isOpened": true,
        "locationGroup": "Berlin",
        "name": "Rothe Gartenbau Clayallee",
        "number": "B306"
      },
      "type": "Feature"
    },
    {
      "geometry": {
        "coordinates": [
          13.29265,
          52.47461
        ],
        "type": "Point"
      },
      "properties": {
        "address": {
          "city": "Berlin Schmargendorf",
          "street": "Breite Str. 28",
          "zipCode": "14199"
        },
        "id": 71,
        "isOpened": true,
        "locationGroup": "Berlin",
        "name": "Breite Straße Wilmersdorf",
        "number": "B068"
      },
      "type": "Feature"
    },
    {
      "geometry": {
        "coordinates": [
          13.50791,
          52.49928
        ],
        "type": "Point"
      },
      "properties": {
        "address": {
          "city": "Berlin Friedrichsfelde",
          "street": "Volkrad Str.30-32",
          "zipCode": "10319"
        },
        "id": 33,
        "isOpened": true,
        "locationGroup": "Berlin",
        "name": "Volkradstr. EKZ",
        "number": "B034"
      },
      "type": "Feature"
    },
    {
      "geometry": {
        "coordinates": [
          13.31622,
          52.44326
        ],
        "type": "Point"
      },
      "properties": {
        "address": {
          "city": "Berlin Lichterfelde",
          "street": "Hindenburgdamm 39",
          "zipCode": "12203"
        },
        "id": 214,
        "isOpened": true,
        "locationGroup": "Berlin",
        "name": "Hindenburgdamm / Klingsorstr.",
        "number": "B065"
      },
      "type": "Feature"
    },
    {
      "geometry": {
        "coordinates": [
          13.32279,
          52.5112
        ],
        "type": "Point"
      },
      "properties": {
        "address": {
          "city": "Berlin Charlottenburg",
          "street": "Hardenbergstr. 5",
          "zipCode": "10623"
        },
        "id": 4,
        "isOpened": true,
        "locationGroup": "Berlin",
        "name": "Haus Hardenberg",
        "number": "B005"
      },
      "type": "Feature"
    },
    {
      "geometry": {
        "coordinates": [
          13.34739,
          52.52017
        ],
        "type": "Point"
      },
      "properties": {
        "address": {
          "city": "Berlin Hansaviertel",
          "street": "Bartningallee/Flensburger Str.",
          "zipCode": "10557"
        },
        "id": 653,
        "isOpened": true,
        "locationGroup": "Berlin",
        "name": "S-Bahnhof Bellevue",
        "number": "B053"
      },
      "type": "Feature"
    },
    {
      "geometry": {
        "coordinates": [
          13.33262,
          52.50662
        ],
        "type": "Point"
      },
      "properties": {
        "address": {
          "city": "Berlin Charlottenburg",
          "street": "Hardenbergplatz",
          "zipCode": "10623"
        },
        "id": 260,
        "isOpened": true,
        "locationGroup": "Berlin",
        "name": "Bahnhof Zoo",
        "number": "B140"
      },
      "type": "Feature"
    },
    {
      "geometry": {
        "coordinates": [
          13.52552,
          52.48291
        ],
        "type": "Point"
      },
      "properties": {
        "address": {
          "city": "Berlin Karlshorst",
          "street": "Treskowallee 106",
          "zipCode": "10318"
        },
        "id": 111,
        "isOpened": true,
        "locationGroup": "Berlin",
        "name": "Treskowallee",
        "number": "B107"
      },
      "type": "Feature"
    },
    {
      "geometry": {
        "coordinates": [
          13.33947,
          52.46274
        ],
        "type": "Point"
      },
      "properties": {
        "address": {
          "city": "Berlin Steglitz",
          "street": "Bismarckstr. 71",
          "zipCode": "12157"
        },
        "id": 257,
        "isOpened": true,
        "locationGroup": "Berlin",
        "name": "Bismarckstr. 71",
        "number": "B138"
      },
      "type": "Feature"
    },
    {
      "geometry": {
        "coordinates": [
          13.3278,
          52.4647
        ],
        "type": "Point"
      },
      "properties": {
        "address": {
          "city": "Berlin Friedenau",
          "street": "Walther-Schreiber-Platz 1",
          "zipCode": "12161"
        },
        "id": 326,
        "isOpened": true,
        "locationGroup": "Berlin",
        "name": "Schloßstr. Center",
        "number": "B170"
      },
      "type": "Feature"
    },
    {
      "geometry": {
        "coordinates": [
          13.343,
          52.50183
        ],
        "type": "Point"
      },
      "properties": {
        "address": {
          "city": "Berlin Schöneberg",
          "street": "Wittenbergplatz -Tauentzien Str.",
          "zipCode": "10789"
        },
        "id": 263,
        "isOpened": true,
        "locationGroup": "Berlin",
        "name": "U-Bahn-Hof Wittenbergplatz",
        "number": "B143"
      },
      "type": "Feature"
    },
    {
      "geometry": {
        "coordinates": [
          13.52544,
          52.48107
        ],
        "type": "Point"
      },
      "properties": {
        "address": {
          "city": "Berlin Karlshorst",
          "street": "Treskowallee/Stolzenfelsstr.",
          "zipCode": "10318"
        },
        "id": 615,
        "isOpened": true,
        "locationGroup": "Berlin",
        "name": "S-Bahnhof Karlshorst",
        "number": "B087"
      },
      "type": "Feature"
    },
    {
      "geometry": {
        "coordinates": [
          13.39552,
          52.56601
        ],
        "type": "Point"
      },
      "properties": {
        "address": {
          "city": "Berlin Pankow",
          "street": "Wollankstr. 16",
          "zipCode": "13187"
        },
        "id": 1081,
        "isOpened": true,
        "locationGroup": "Berlin",
        "name": "Rewe Wollankstr.",
        "number": "B340"
      },
      "type": "Feature"
    },
    {
      "geometry": {
        "coordinates": [
          13.40388,
          52.56923
        ],
        "type": "Point"
      },
      "properties": {
        "address": {
          "city": "Berlin",
          "street": "Breite Straße 28 b / Ecke Mühlenstraße",
          "zipCode": "13187"
        },
        "id": 1161,
        "isOpened": true,
        "locationGroup": "Berlin",
        "name": "Rathaus Pankow",
        "number": "B377"
      },
      "type": "Feature"
    },
    {
      "geometry": {
        "coordinates": [
          13.33159,
          52.48595
        ],
        "type": "Point"
      },
      "properties": {
        "address": {
          "city": "Berlin Wilmersdorf",
          "street": "Bundesallee 171 / Ecke Badensche Str.",
          "zipCode": "10715"
        },
        "id": 491,
        "isOpened": true,
        "locationGroup": "Berlin",
        "name": "Bundesallee / Badensche Str.",
        "number": "B192"
      },
      "type": "Feature"
    },
    {
      "geometry": {
        "coordinates": [
          13.41052,
          52.56639
        ],
        "type": "Point"
      },
      "properties": {
        "address": {
          "city": "Berlin Pankow",
          "street": "Florastr. 50",
          "zipCode": "13187"
        },
        "id": 18,
        "isOpened": true,
        "locationGroup": "Berlin",
        "name": "U-Bahn Pankow Florastraße",
        "number": "B019"
      },
      "type": "Feature"
    },
    {
      "geometry": {
        "coordinates": [
          13.40902,
          52.57109
        ],
        "type": "Point"
      },
      "properties": {
        "address": {
          "city": "Berlin Pankow",
          "street": "Ossietzkystraße 2",
          "zipCode": "13187"
        },
        "id": 5,
        "isOpened": true,
        "locationGroup": "Berlin",
        "name": "Ossietzkystraße",
        "number": "B006"
      },
      "type": "Feature"
    },
    {
      "geometry": {
        "coordinates": [
          13.41357,
          52.5597
        ],
        "type": "Point"
      },
      "properties": {
        "address": {
          "city": "Berlin Pankow",
          "street": "Elsa Brändström Str. 2",
          "zipCode": "13189"
        },
        "id": 104,
        "isOpened": true,
        "locationGroup": "Berlin",
        "name": "Elsa Brändström Str. 2 Sunpoint",
        "number": "B101"
      },
      "type": "Feature"
    },
    {
      "geometry": {
        "coordinates": [
          13.410078,
          52.550841
        ],
        "type": "Point"
      },
      "properties": {
        "address": {
          "city": "Berlin",
          "street": "Schivelbeiner Str. 38",
          "zipCode": "10439"
        },
        "id": 1205,
        "isOpened": true,
        "locationGroup": "Berlin",
        "name": "Rewe Schivelbeiner Str.",
        "number": "B383"
      },
      "type": "Feature"
    },
    {
      "geometry": {
        "coordinates": [
          13.41419,
          52.54969
        ],
        "type": "Point"
      },
      "properties": {
        "address": {
          "city": "Berlin Prenzlauer Berg",
          "street": "Schönhauser Allee 79-80",
          "zipCode": "10439"
        },
        "id": 275,
        "isOpened": true,
        "locationGroup": "Berlin",
        "name": "Schönhauser Allee Arcaden",
        "number": "B151"
      },
      "type": "Feature"
    },
    {
      "geometry": {
        "coordinates": [
          13.426965,
          52.544084
        ],
        "type": "Point"
      },
      "properties": {
        "address": {
          "city": "Berlin Prenzlauer Berg",
          "street": "Prenzlauer Allee 180",
          "zipCode": "10405"
        },
        "id": 52,
        "isOpened": true,
        "locationGroup": "Berlin",
        "name": "Küchenhaus Prenzlauer Allee",
        "number": "B051"
      },
      "type": "Feature"
    }
  ],
  "type": "FeatureCollection"
}